[
  {
    "name": "Chicago",
    "lat": 41.8827,
    "lng": -87.6233,
    "city": true,
    "places": [
      {
        "name": "The Bean",
        "lat": 41.8826,
        "lng": -87.6233,
        "images": [
          {
            "url": "https://res.cloudinary.com/dudip2vsk/image/upload/v1747414654/IMG-20250516-WA0004_dbslyh.jpg",
            "date": "2024-11-30"
          },
          {
            "url": "https://res.cloudinary.com/dudip2vsk/image/upload/v1747414653/IMG-20250516-WA0003_szl8ni.jpg",
            "date": "2024-11-30"
          }
        ]
      },
      {
        "name": "Navy Pier",
        "lat": 41.8916,
        "lng": -87.6079,
        "images": [
          {
            "url": "https://res.cloudinary.com/dudip2vsk/image/upload/v1747425289/WhatsApp_Image_2025-05-16_at_21.54.20_17a0b059_ogg8ar.jpg",
            "date": "2024-11-30"
          }
        ]
      },
      {
        "name": "Six Flags Great America",
        "lat": 42.3700,
        "lng": -87.9363,
        "images": [
          {
            "url": "https://res.cloudinary.com/dudip2vsk/image/upload/v1747430108/IMG-20250516-WA0025_prkfaz.jpg",
            "date": "2025-04-19"
          },
          {
            "url": "https://res.cloudinary.com/dudip2vsk/image/upload/v1747430098/IMG-20250516-WA0026_l9tbxa.jpg",
            "date": "2025-04-19"
          }
        ]
      }
    ]
  },
  {
    "name": "West Lafayette",
    "lat": 40.4237,
    "lng": -86.9212,
    "city": true,
    "places": [
      {
        "name": "Purdue University",
        "lat": 40.4237,
        "lng": -86.9212,
        "images": [
          {
            "url": "https://res.cloudinary.com/dudip2vsk/image/upload/v1747414652/IMG-20250516-WA0006_lccerq.jpg",
            "date": "2024-08-12"
          },
          {
            "url": "https://res.cloudinary.com/dudip2vsk/image/upload/v1747414650/IMG-20250516-WA0005_wymv2o.jpg",
            "date": "2024-12-06"
          }
        ]
      }
    ]
  },
  {
    "name": "Paris",
    "lat": 48.8584,
    "lng": 2.2945,
    "city": true,
    "places": [
      {
        "name": "Eiffel Tower",
        "lat": 48.8584,
        "lng": 2.2945,
        "images": [
          {
            "url": "https://res.cloudinary.com/dudip2vsk/image/upload/v1747414652/IMG-20250516-WA0001_skavqq.jpg",
            "date": "2025-05-16"
          },
          {
            "url": "https://res.cloudinary.com/dudip2vsk/image/upload/v1747414651/IMG-20250516-WA0002_kgv8i2.jpg",
            "date": "2025-05-16"
          },
          {
            "url": "https://res.cloudinary.com/dudip2vsk/image/upload/v1747431867/WhatsApp_Image_2025-05-16_at_23.44.07_7f0a662b_pnezr8.jpg",
            "date": "YYYY-MM-DD"
          }
        ]
      }
    ]
  },
  {
    "name": "Niagara Falls",
    "lat": 43.0962,
    "lng": -79.0377,
    "city": true,
    "places": [
      {
        "name": "Main Falls",
        "lat": 43.0852,
        "lng": -79.0645,
        "images": [
          {
            "url": "https://res.cloudinary.com/dudip2vsk/image/upload/v1747424627/IMG-20250516-WA0008_ltin9l.jpg",
            "date": "2023-08-21"
          },
          {
            "url": "https://res.cloudinary.com/dudip2vsk/image/upload/v1747424609/IMG-20250516-WA0007_aka9yk.jpg",
            "date": "2023-08-21"
          }
        ]
      }
    ]
  },
  {
    "name": "New York",
    "lat": 40.7128,
    "lng": -74.0060,
    "city": true,
    "places": [
      {
        "name": "Times Square",
        "lat": 40.7580,
        "lng": -73.9855,
        "images": [
          {
            "url": "https://res.cloudinary.com/dudip2vsk/image/upload/v1747424621/IMG-20250516-WA0014_ngojbz.jpg",
            "date": "2025-05-12"
          },
          {
            "url": "https://res.cloudinary.com/dudip2vsk/image/upload/v1747424615/IMG-20250516-WA0011_zhs6mu.jpg",
            "date": "2025-05-12"
          }
        ]
      },
      {
        "name": "Central Park",
        "lat": 40.7829,
        "lng": -73.9654,
        "images": [
          {
            "url": "https://res.cloudinary.com/dudip2vsk/image/upload/v1747424619/IMG-20250516-WA0016_xz2xrj.jpg",
            "date": "2025-05-12"
          },
          {
            "url": "https://res.cloudinary.com/dudip2vsk/image/upload/v1747424611/IMG-20250516-WA0015_svd3yu.jpg",
            "date": "2025-05-12"
          }
        ]
      },
      {
        "name": "The Vessel",
        "lat": 40.7540,
        "lng": -74.0027,
        "images": [
          {
            "url": "https://res.cloudinary.com/dudip2vsk/image/upload/v1747424624/IMG-20250516-WA0012_ybsavy.jpg",
            "date": "2025-05-12"
          },
          {
            "url": "https://res.cloudinary.com/dudip2vsk/image/upload/v1747424616/IMG-20250516-WA0009_rajvak.jpg",
            "date": "2025-05-12"
          }
        ]
      },
      {
        "name": "Wall Street",
        "lat": 40.7074,
        "lng": -74.0113,
        "images": [
          {
            "url": "https://res.cloudinary.com/dudip2vsk/image/upload/v1747424616/IMG-20250516-WA0013_nxb0y3.jpg",
            "date": "2025-05-12"
          },
          {
            "url": "https://res.cloudinary.com/dudip2vsk/image/upload/v1747424611/IMG-20250516-WA0010_eqt8sr.jpg",
            "date": "2025-05-12"
          }
        ]
      }
    ]
  },
  {
    "name": "Indianapolis",
    "lat": 39.7684,
    "lng": -86.1581,
    "city": true,
    "places": [
      {
        "name": "White River",
        "lat": 39.7671,
        "lng": -86.1760,
        "images": [
          {
            "url": "https://res.cloudinary.com/dudip2vsk/image/upload/v1747430099/IMG-20250516-WA0020_gwvbtj.jpg",
            "date": "2024-09-14"
          }
        ]
      }
    ]
  },
  {
    "name": "Japan",
    "lat": 35.6895,
    "lng": 139.6917,
    "city": true,
    "places": [
      {
        "name": "Hamarikyu Gardens",
        "lat": 35.6615,
        "lng": 139.7620,
        "images": [
          {
            "url": "https://res.cloudinary.com/dudip2vsk/image/upload/v1747430105/IMG-20250516-WA0019_ldtvz8.jpg",
            "date": "2025-01-10"
          },
          {
            "url": "https://res.cloudinary.com/dudip2vsk/image/upload/v1747430109/IMG-20250516-WA0022_jd93wd.jpg",
            "date": "2025-01-10"
          },
          {
            "url": "https://res.cloudinary.com/dudip2vsk/image/upload/v1747430106/IMG-20250516-WA0018_ecxsu9.jpg",
            "date": "2025-01-10"
          }
        ]
      }
    ]
  },
  {
    "name": "Toronto",
    "lat": 43.6511,
    "lng": -79.3839,
    "city": true,
    "places": [
      {
        "name": "Royal Ontario Museum",
        "lat": 43.6677,
        "lng": -79.3948,
        "images": [
          {
            "url": "https://res.cloudinary.com/dudip2vsk/image/upload/v1747430101/IMG-20250516-WA0021_bgezyt.jpg",
            "date": "2025-03-16"
          },
          {
            "url": "https://res.cloudinary.com/dudip2vsk/image/upload/v1747430102/IMG-20250516-WA0023_qwmm4v.jpg",
            "date": "2025-03-16"
          }
        ]
      },
      {
        "name": "Toronto Island",
        "lat": 43.6205,
        "lng": -79.3789,
        "images": [
          {
            "url": "https://res.cloudinary.com/dudip2vsk/image/upload/v1747430099/IMG-20250516-WA0024_qxe2fy.jpg",
            "date": "2025-03-16"
          }
        ]
      }
    ]
  }
]
